{
  "locations": [
    {

    "id": 1,
    "name": "Children's Discovery Museum",
    "location": "San Jose",
    "address": "180 Woz Way, San Jose, CA 95110",
    "region": "South Bay",
    "type": "Children's Museum",
    "ageRange": "2-8",
    "cost": "$$",
    "parentQuote": "just as fantastic a visit (minus the incredible scenery). Hardly a hidden gem but somewhat under-appreciated",
    "insiderTips": "Under-appreciated compared to Sausalito location"
  },
  {
    "id": 2,
    "name": "Lawrence Hall of Science",
    "location": "Berkeley",
    "address": "1 Centennial Dr, Berkeley, CA 94720",
    "region": "East Bay",
    "type": "Science Museum",
    "ageRange": "4+",
    "cost": "$$",
    "parentQuote": "when kiddo's a little older",
    "insiderTips": "Perfect for older kids"
  },
  {
    "id": 3,
    "name": "Adventure Playground",
    "location": "Berkeley Marina",
    "address": "160 University Ave, Berkeley, CA 94710",
    "region": "East Bay",
    "type": "Adventure Play",
    "ageRange": "5+",
    "cost": "Free",
    "parentQuote": "My kids adored that place and despite my worries, never got injured",
    "insiderTips": "Age 5+ for tools, zip line 6+. Called 'Tetanus Park'"
  },
  {
    "id": 4,
    "name": "CuriOdyssey",
    "location": "San Mateo",
    "address": "401 El Camino Real, San Mateo, CA 94401",
    "region": "Peninsula",
    "type": "Science Museum",
    "ageRange": "2-5",
    "cost": "$$",
    "parentQuote": "perfect for this age. Kids can run around and don't have to worry",
    "insiderTips": "Perfect for 2.5-3yo. Combine with Magic Mountain + beach"
  },
  {
    "id": 5,
    "name": "22nd Street Caltrain Adventure",
    "location": "SF to San Mateo",
    "address": "22nd St Caltrain Station, SF",
    "region": "Transportation",
    "type": "Transportation Adventure",
    "ageRange": "2+",
    "cost": "$",
    "parentQuote": "drive to 22nd Caltrain stop, take train to San Mateo for lunch. Train ride alone is total adventure and sun comes out down there!",
    "insiderTips": "Sun comes out in San Mateo! Train ride is main attraction"
  },
  {
    "id": 6,
    "name": "Hayward Japanese Gardens",
    "location": "Hayward",
    "address": "22373 N 3rd St, Hayward, CA 94541",
    "region": "East Bay",
    "type": "Nature/Gardens",
    "ageRange": "All ages",
    "cost": "Free",
    "parentQuote": "for a quick stroll and seeing the fish and turtles in the pond",
    "insiderTips": "Quick visit, perfect for short attention spans"
  },
  {
    "id": 7,
    "name": "Happy Hollow",
    "location": "San Jose",
    "address": "748 Story Rd, San Jose, CA 95112",
    "region": "South Bay",
    "type": "Zoo + Amusement",
    "ageRange": "Toddlers-8yrs",
    "cost": "$$",
    "parentQuote": "literal favorite place as a kid. mysterious broke down attractions and oddities were enthralling",
    "insiderTips": "Perfect for toddler to 8yr range. Has mysterious unfinished charm"
  },
  {
    "id": 8,
    "name": "Ardenwood Farms",
    "location": "Fremont",
    "address": "34600 Ardenwood Blvd, Fremont, CA 94555",
    "region": "East Bay",
    "type": "Historical Farm",
    "ageRange": "2-8",
    "cost": "$",
    "parentQuote": "so much for kiddos to do and experience there!",
    "insiderTips": "Great fall events"
  },
  {
    "id": 9,
    "name": "Tilden Steam Train",
    "location": "Berkeley",
    "address": "Tilden Regional Park, Berkeley, CA",
    "region": "East Bay",
    "type": "Train Ride",
    "ageRange": "2-8",
    "cost": "$",
    "parentQuote": "always a winner. ride through the redwoods!",
    "insiderTips": "Combine with Little Farm and Merry-go-round for full day"
  },
  {
    "id": 10,
    "name": "Tilden Little Farm",
    "location": "Berkeley",
    "address": "Tilden Regional Park, Berkeley, CA",
    "region": "East Bay",
    "type": "Farm Animals",
    "ageRange": "0-8",
    "cost": "Free",
    "parentQuote": "sweet and fun for Littles to bigger Littles",
    "insiderTips": "Recently banned feeding animals. Very small - 30min walkthrough"
  },
  {
    "id": 11,
    "name": "Tilden Merry-go-Round",
    "location": "Berkeley",
    "address": "Tilden Regional Park, Berkeley, CA",
    "region": "East Bay",
    "type": "Amusement Ride",
    "ageRange": "2-8",
    "cost": "$",
    "parentQuote": "Adding Tilden Merry Go Round",
    "insiderTips": "It spins so fast!"
  },
  {
    "id": 12,
    "name": "Multi-Transit Adventure Loop",
    "location": "RWC to SF to Alameda",
    "address": "Caltrain + Muni + Ferry",
    "region": "Transportation",
    "type": "Transportation Adventure",
    "ageRange": "All ages",
    "cost": "$$",
    "parentQuote": "take Caltrain to SF, trolley to pier, lunch at ferry building, ferry to Alameda and Oakland",
    "insiderTips": "Perfect for mixed ages. Almost every transit method in one day"
  },
  {
    "id": 13,
    "name": "Oakland Zoo",
    "location": "Oakland",
    "address": "9777 Golf Links Rd, Oakland, CA 94605",
    "region": "East Bay",
    "type": "Zoo",
    "ageRange": "2+",
    "cost": "$$",
    "parentQuote": "Not lesser known but great. Members means don't feel bad if bail after 20min",
    "insiderTips": "Membership recommended for flexibility"
  },
  {
    "id": 14,
    "name": "SF Zoo",
    "location": "San Francisco",
    "address": "2701 Sloat Blvd, San Francisco, CA 94132",
    "region": "San Francisco",
    "type": "Zoo",
    "ageRange": "2+",
    "cost": "$$",
    "parentQuote": "take our 2.5yo all the time. Got membership. Safe for runners",
    "insiderTips": "Good for toddler runners, big playground"
  },
  {
    "id": 15,
    "name": "Holly Park",
    "location": "San Francisco",
    "address": "Highland Ave & Holly Park Cir, SF",
    "region": "San Francisco",
    "type": "Playground",
    "ageRange": "2-5",
    "cost": "Free",
    "parentQuote": "perfect for this age. Kids can run around and don't have to worry",
    "insiderTips": "Perfect for 2.5yo. Part of parent's favs rotation"
  },
  {
    "id": 16,
    "name": "22nd Street Park, Dogpatch",
    "location": "San Francisco",
    "address": "22nd St, San Francisco, CA",
    "region": "San Francisco",
    "type": "Playground",
    "ageRange": "2-5",
    "cost": "Free",
    "parentQuote": "the little park on 22nd in the Dogpatch because perfect for this age",
    "insiderTips": "Local favorite, safe for toddlers"
  },
  {
    "id": 17,
    "name": "East Bay Regional Parks",
    "location": "East Bay Various",
    "address": "Multiple locations",
    "region": "East Bay",
    "type": "Nature Parks",
    "ageRange": "All ages",
    "cost": "$ parking",
    "parentQuote": "has a metric ton of locations",
    "insiderTips": "Roberts Park play structure is amazing"
  },
  {
    "id": 18,
    "name": "Mia's Dream Come True Playground",
    "location": "Hayward",
    "address": "1740 B St, Hayward, CA 94541",
    "region": "East Bay",
    "type": "Accessible Playground",
    "ageRange": "2-5",
    "cost": "Free",
    "parentQuote": "Really solid place for ages 2-5",
    "insiderTips": "All-access park for kids, nice spots of shade for picnic"
  },
  {
    "id": 19,
    "name": "Presidio Tunnel Tops",
    "location": "San Francisco",
    "address": "210 Lincoln Blvd, San Francisco, CA 94129",
    "region": "San Francisco",
    "type": "Playground",
    "ageRange": "2-8",
    "cost": "Free",
    "parentQuote": "absolutely incredibly designed spaces for kids, and they are free!",
    "insiderTips": "Food trucks available, great views"
  },
  {
    "id": 20,
    "name": "Presidio Field Station",
    "location": "San Francisco",
    "address": "200 Lincoln Blvd, San Francisco, CA",
    "region": "San Francisco",
    "type": "Playground",
    "ageRange": "2-6",
    "cost": "Free",
    "parentQuote": "absolutely incredibly designed spaces for kids, and they are free!",
    "insiderTips": "Sand + water stations perfect for 2yo"
  },
  {
    "id": 21,
    "name": "Train Town Sonoma",
    "location": "Sonoma",
    "address": "20264 Broadway, Sonoma, CA 95476",
    "region": "North Bay",
    "type": "Train Adventure",
    "ageRange": "2-6",
    "cost": "$$",
    "parentQuote": "great for the little ones",
    "insiderTips": "Go Tuesday for Tuesday night market combo in town square"
  },
  {
    "id": 22,
    "name": "Santa Cruz Library + Beach",
    "location": "Santa Cruz",
    "address": "Downtown Santa Cruz",
    "region": "Other Bay Area",
    "type": "Beach + Library",
    "ageRange": "All ages",
    "cost": "Free + parking",
    "parentQuote": "park by library and walk to beach, if that's still possible",
    "insiderTips": "Marine Education Center nearby"
  },
  {
    "id": 23,
    "name": "Cull Canyon Lagoon",
    "location": "Castro Valley",
    "address": "Cull Canyon Rd, Castro Valley, CA",
    "region": "East Bay",
    "type": "Lake/Swimming",
    "ageRange": "3+",
    "cost": "$",
    "parentQuote": "I came here to suggest Cull Canyon!",
    "insiderTips": "Don Castro nearby sometimes less crowded"
  },
  {
    "id": 24,
    "name": "Don Castro Regional Park",
    "location": "Castro Valley",
    "address": "Don Castro Regional Park",
    "region": "East Bay",
    "type": "Lake/Swimming",
    "ageRange": "3+",
    "cost": "$",
    "parentQuote": "sometimes a little less crowded than Cull Canyon",
    "insiderTips": "Alternative when Cull Canyon is busy"
  },
  {
    "id": 25,
    "name": "Fitzgerald Marine Reserve",
    "location": "Half Moon Bay",
    "address": "California Ave, Moss Beach, CA",
    "region": "Other Bay Area",
    "type": "Tide Pools",
    "ageRange": "4+",
    "cost": "Free",
    "parentQuote": "Pick a day with negative tide",
    "insiderTips": "NOT safe for toddlers - very slippery on reef"
  },
  {
    "id": 26,
    "name": "SFO Airport Adventure",
    "location": "San Francisco",
    "address": "San Francisco Airport",
    "region": "San Francisco",
    "type": "Transportation Adventure",
    "ageRange": "1-4",
    "cost": "$17-26",
    "parentQuote": "buy cheapest ticket, ride tram between terminals, watch planes",
    "insiderTips": "Access lounges with credit cards"
  },
  {
    "id": 27,
    "name": "Gilroy Gardens",
    "location": "Gilroy",
    "address": "3050 Hecker Pass Hwy, Gilroy, CA",
    "region": "South Bay",
    "type": "Theme Park",
    "ageRange": "2+",
    "cost": "$$",
    "parentQuote": "Gilroy Gardens for the splash pads",
    "insiderTips": "Great for splash pad activities"
  },
  {
    "id": 28,
    "name": "PixieLand",
    "location": "Concord",
    "address": "2740 E Olivera Rd, Concord, CA",
    "region": "East Bay",
    "type": "Amusement Park",
    "ageRange": "2-6",
    "cost": "$$",
    "parentQuote": "PixieLand in Concord",
    "insiderTips": "Small amusement park for younger kids"
  },
  {
    "id": 29,
    "name": "Magic Mountain Playground",
    "location": "San Mateo",
    "address": "Coyote Point Recreation Area",
    "region": "Peninsula",
    "type": "Playground",
    "ageRange": "2-8",
    "cost": "$6 parking",
    "parentQuote": "All the kids love Magic Mountain Playground",
    "insiderTips": "At Coyote Point with CuriOdyssey and beach"
  },
  {
    "id": 30,
    "name": "Magical Bridge Playground - Redwood City",
    "location": "Redwood City",
    "address": "1500 Oak Knoll Dr, Redwood City",
    "region": "Peninsula",
    "type": "Accessible Playground",
    "ageRange": "All ages",
    "cost": "Free",
    "parentQuote": "Magical Bridge playgrounds",
    "insiderTips": "One of three locations mentioned"
  },
  {
    "id": 31,
    "name": "Magical Bridge Playground - Palo Alto",
    "location": "Palo Alto",
    "address": "3990 Ventura Ct, Palo Alto",
    "region": "Peninsula",
    "type": "Accessible Playground",
    "ageRange": "All ages",
    "cost": "Free",
    "parentQuote": "Magical Bridge playgrounds",
    "insiderTips": "One of three locations mentioned"
  },
  {
    "id": 32,
    "name": "Palo Alto Junior Museum and Zoo",
    "location": "Palo Alto",
    "address": "1451 Middlefield Rd, Palo Alto",
    "region": "Peninsula",
    "type": "Museum + Zoo",
    "ageRange": "2-8",
    "cost": "$",
    "parentQuote": "Discovery museum and mini zoo all in one",
    "insiderTips": "Hands-on science with great backyard zoo"
  },
  {
    "id": 33,
    "name": "Chabot Space and Science Center",
    "location": "Oakland",
    "address": "10000 Skyline Blvd, Oakland, CA 94619",
    "region": "East Bay",
    "type": "Science Museum",
    "ageRange": "4+",
    "cost": "$$",
    "parentQuote": "Chabot space and science (Oakland)",
    "insiderTips": "Good for older kids"
  },
  {
    "id": 34,
    "name": "Oakland Museum",
    "location": "Oakland",
    "address": "1000 Oak St, Oakland, CA 94607",
    "region": "East Bay",
    "type": "Art/History Museum",
    "ageRange": "All ages",
    "cost": "$$",
    "parentQuote": "good size for families and has really nice garden",
    "insiderTips": "California exhibit great, play area for toddlers"
  },
  {
    "id": 35,
    "name": "Lake Merritt",
    "location": "Oakland",
    "address": "Lake Merritt, Oakland, CA",
    "region": "East Bay",
    "type": "Nature/Walking",
    "ageRange": "All ages",
    "cost": "Free",
    "parentQuote": "Walk around lake Merritt",
    "insiderTips": "Great for walks and duck watching"
  },
  {
    "id": 36,
    "name": "Fremont Water Park",
    "location": "Fremont",
    "address": "40500 Paseo Padre Pkwy, Fremont",
    "region": "East Bay",
    "type": "Water Park",
    "ageRange": "3+",
    "cost": "$$",
    "parentQuote": "water park that's awesome for kids (and parents). lazy river is fantastic",
    "insiderTips": "Go early, rent a cabana"
  },
  {
    "id": 37,
    "name": "Crab Cove",
    "location": "Alameda",
    "address": "1252 McKay Ave, Alameda, CA",
    "region": "East Bay",
    "type": "Beach",
    "ageRange": "All ages",
    "cost": "Free",
    "parentQuote": "Crab cove in alameda",
    "insiderTips": "Good beach for families"
  },
  {
    "id": 38,
    "name": "Oakland Rose Garden",
    "location": "Oakland",
    "address": "700 Grand Ave, Oakland, CA 94610",
    "region": "East Bay",
    "type": "Gardens",
    "ageRange": "All ages",
    "cost": "Free",
    "parentQuote": "Oakland rose garden",
    "insiderTips": "Beautiful garden space"
  },
  {
    "id": 39,
    "name": "Crown Beach",
    "location": "Alameda",
    "address": "8th St & Otis Dr, Alameda, CA",
    "region": "East Bay",
    "type": "Beach",
    "ageRange": "All ages",
    "cost": "Free",
    "parentQuote": "our kids enjoyed wading at Crown beach. super shallow and mild",
    "insiderTips": "Perfect for young kids - very shallow water"
  },
  {
    "id": 40,
    "name": "Blake Garden",
    "location": "Berkeley",
    "address": "70 Rincon Rd, Kensington, CA",
    "region": "East Bay",
    "type": "Botanical Garden",
    "ageRange": "All ages",
    "cost": "Free",
    "parentQuote": "Blake Garden in Berkeley",
    "insiderTips": "Beautiful botanical garden"
  },
  {
    "id": 41,
    "name": "Berkeley Marina Kite Flying",
    "location": "Berkeley",
    "address": "Berkeley Marina",
    "region": "East Bay",
    "type": "Outdoor Activity",
    "ageRange": "All ages",
    "cost": "Free",
    "parentQuote": "Buy cheap kites and fly them at the Berkeley marina. So fun!",
    "insiderTips": "Great open space for kite flying"
  },
  {
    "id": 42,
    "name": "Cordonices Park",
    "location": "Berkeley",
    "address": "1720 Euclid Ave, Berkeley, CA",
    "region": "East Bay",
    "type": "Playground",
    "ageRange": "2+",
    "cost": "Free",
    "parentQuote": "fond memories of going to Cordonices Park as a kid. still there and kids love it",
    "insiderTips": "Big concrete slide (bring cardboard)"
  },
  {
    "id": 43,
    "name": "Berkeley Rose Gardens",
    "location": "Berkeley",
    "address": "1200 Euclid Ave, Berkeley, CA",
    "region": "East Bay",
    "type": "Gardens",
    "ageRange": "All ages",
    "cost": "Free",
    "parentQuote": "view the Berkeley rose gardens",
    "insiderTips": "Beautiful rose garden"
  },
  {
    "id": 44,
    "name": "Washington Park",
    "location": "Alameda",
    "address": "740 Central Ave, Alameda, CA",
    "region": "East Bay",
    "type": "Playground + Beach",
    "ageRange": "All ages",
    "cost": "Free",
    "parentQuote": "Walk from Washington park down to crab cove beach. perfect",
    "insiderTips": "Giant playground/park, walk to beach in 1/4 mile"
  },
  {
    "id": 45,
    "name": "Totland",
    "location": "Berkeley",
    "address": "Virginia St, Berkeley, CA",
    "region": "East Bay",
    "type": "Playground",
    "ageRange": "2-3",
    "cost": "Free",
    "parentQuote": "my kid loooooved it there at that age. Oh, Totland is so good",
    "insiderTips": "Perfect for 2.5-3yo age range"
  },
  {
    "id": 46,
    "name": "Dracena Park",
    "location": "Piedmont",
    "address": "Dracena Ave, Piedmont, CA",
    "region": "East Bay",
    "type": "Park",
    "ageRange": "All ages",
    "cost": "Free",
    "parentQuote": "Dracena park in piedmont",
    "insiderTips": "Nice neighborhood park"
  },
  {
    "id": 47,
    "name": "Fort Cronkite",
    "location": "Marin Headlands",
    "address": "Fort Cronkite, Sausalito, CA",
    "region": "North Bay",
    "type": "Nature/Activities",
    "ageRange": "4+",
    "cost": "Free",
    "parentQuote": "fun crabbing class off a pier at Ft. Cronkite",
    "insiderTips": "National Park Service activities for kids"
  },
  {
    "id": 48,
    "name": "Marine Mammal Center",
    "location": "Marin Headlands",
    "address": "2000 Bunker Rd, Sausalito, CA",
    "region": "North Bay",
    "type": "Wildlife Center",
    "ageRange": "All ages",
    "cost": "Free",
    "parentQuote": "marine mammal center in Marin Headlands",
    "insiderTips": "Educational wildlife experience"
  },
  {
    "id": 49,
    "name": "Fox and Kit",
    "location": "San Rafael",
    "address": "308 4th St, San Rafael, CA",
    "region": "North Bay",
    "type": "Indoor Play Cafe",
    "ageRange": "2-6",
    "cost": "$$",
    "parentQuote": "Fox and Kit (we like to go right when it opens for an hour or two before it gets crowded)",
    "insiderTips": "Go when it opens to avoid crowds"
  },
  {
    "id": 50,
    "name": "Lindsay Wildlife Encounter",
    "location": "Walnut Creek",
    "address": "1931 1st Ave, Walnut Creek, CA",
    "region": "East Bay",
    "type": "Wildlife Center",
    "ageRange": "2+",
    "cost": "$",
    "parentQuote": "Lindsay Wildlife Encounter, First Avenue walnut creek",
    "insiderTips": "Larky Park next door for outdoor play"
  },
  {
    "id": 51,
    "name": "Larky Park",
    "location": "Walnut Creek",
    "address": "Next to Lindsay Wildlife",
    "region": "East Bay",
    "type": "Playground",
    "ageRange": "All ages",
    "cost": "Free",
    "parentQuote": "park next to it and when littles get tired of inside you can go play",
    "insiderTips": "Adjacent to Lindsay Wildlife"
  },
  {
    "id": 52,
    "name": "Cal Academy of Sciences",
    "location": "San Francisco",
    "address": "55 Music Concourse Dr, SF",
    "region": "San Francisco",
    "type": "Science Museum",
    "ageRange": "2+",
    "cost": "$$",
    "parentQuote": "Cal academy of science",
    "insiderTips": "Major science museum"
  },
  {
    "id": 53,
    "name": "Bison Paddock",
    "location": "San Francisco",
    "address": "Golden Gate Park, SF",
    "region": "San Francisco",
    "type": "Nature Viewing",
    "ageRange": "All ages",
    "cost": "Free",
    "parentQuote": "Bison paddock in GGP",
    "insiderTips": "See American Bison in Golden Gate Park"
  },
  {
    "id": 54,
    "name": "Pier 39",
    "location": "San Francisco",
    "address": "Pier 39, San Francisco, CA",
    "region": "San Francisco",
    "type": "Tourist Attraction",
    "ageRange": "All ages",
    "cost": "Free entry, $$ activities",
    "parentQuote": "Pier 39 and Aquarium of the Pacific in SF",
    "insiderTips": "Classic SF attraction"
  },
  {
    "id": 55,
    "name": "Aquarium of the Bay",
    "location": "San Francisco",
    "address": "Pier 39, San Francisco, CA",
    "region": "San Francisco",
    "type": "Aquarium",
    "ageRange": "All ages",
    "cost": "$$",
    "parentQuote": "Aquarium of the Pacific in SF",
    "insiderTips": "At Pier 39"
  },
  {
    "id": 56,
    "name": "SFMoMA Free Family Day",
    "location": "San Francisco",
    "address": "151 3rd St, San Francisco, CA",
    "region": "San Francisco",
    "type": "Art Museum",
    "ageRange": "All ages",
    "cost": "Free on family days",
    "parentQuote": "SFMoMA Free Family Day",
    "insiderTips": "Free admission on special family days"
  },
  {
    "id": 57,
    "name": "Balloon Museum",
    "location": "San Francisco",
    "address": "Location varies",
    "region": "San Francisco",
    "type": "Temporary Exhibit",
    "ageRange": "All ages",
    "cost": "$$",
    "parentQuote": "check out the Balloon Museum before it's gone at the end of September",
    "insiderTips": "Temporary exhibit ending September"
  },
  {
    "id": 58,
    "name": "South SF Library",
    "location": "South San Francisco",
    "address": "840 W Orange Ave, South SF",
    "region": "Peninsula",
    "type": "Library",
    "ageRange": "All ages",
    "cost": "Free",
    "parentQuote": "South SF Library for weekend activities, playground, STEM toys",
    "insiderTips": "Weekend activities, maker space with STEM toys"
  },
  {
    "id": 59,
    "name": "Outer Sunset Farmers Market",
    "location": "San Francisco",
    "address": "Outer Sunset, SF",
    "region": "San Francisco",
    "type": "Market/Event",
    "ageRange": "All ages",
    "cost": "Free entry",
    "parentQuote": "Outer Sunset Farmers Market on Sunday has food trucks and kids activities",
    "insiderTips": "Sunday market with kid activities"
  },
  {
    "id": 60,
    "name": "Fort Funston",
    "location": "San Francisco",
    "address": "Fort Funston, San Francisco, CA",
    "region": "San Francisco",
    "type": "Nature/Kite Flying",
    "ageRange": "All ages",
    "cost": "Free",
    "parentQuote": "Fort Funston",
    "insiderTips": "Great for kite flying"
  },
  {
    "id": 61,
    "name": "Half Moon Bay Library",
    "location": "Half Moon Bay",
    "address": "620 Correas St, Half Moon Bay",
    "region": "Other Bay Area",
    "type": "Library",
    "ageRange": "All ages",
    "cost": "Free",
    "parentQuote": "Library in HMB is awesome and there's a lot of cute places to walk around",
    "insiderTips": "Great library with cute town to explore"
  },
  {
    "id": 62,
    "name": "Santa Clara County Libraries",
    "location": "Multiple Cities",
    "address": "Gilroy, Morgan Hill, Milpitas, Saratoga",
    "region": "South Bay",
    "type": "Library",
    "ageRange": "0-8",
    "cost": "Free",
    "parentQuote": "updated gilroy, morgan hill, milpitas, saratoga with awesome indoor play structures",
    "insiderTips": "Newly updated with indoor play structures"
  },
  {
    "id": 63,
    "name": "SF Main Library",
    "location": "San Francisco",
    "address": "100 Larkin St, San Francisco, CA",
    "region": "San Francisco",
    "type": "Library",
    "ageRange": "0-8",
    "cost": "Free",
    "parentQuote": "whole second floor is basically children paradise and it's free!",
    "insiderTips": "Lots of play things, can borrow toys from counter"
  },
  {
    "id": 64,
    "name": "Redwood City Story Time",
    "location": "Redwood City",
    "address": "Courthouse Square Park",
    "region": "Peninsula",
    "type": "Library Program",
    "ageRange": "19 months",
    "cost": "Free",
    "parentQuote": "best story time she's ever been to",
    "insiderTips": "Mondays in park, bilingual, super engaging"
  },
  {
    "id": 65,
    "name": "Train Museum Old Sacramento",
    "location": "Sacramento",
    "address": "125 I St, Sacramento, CA",
    "region": "Beyond Bay Area",
    "type": "Train Museum",
    "ageRange": "2+",
    "cost": "$",
    "parentQuote": "Train museum and candy shops in Old Sacramento",
    "insiderTips": "Short walk from Amtrak station for train themed day"
  },
  {
    "id": 66,
    "name": "Sacramento Zoo",
    "location": "Sacramento",
    "address": "3930 W Land Park Dr, Sacramento",
    "region": "Beyond Bay Area",
    "type": "Zoo",
    "ageRange": "2+",
    "cost": "$$",
    "parentQuote": "Oakland or Sacramento zoos",
    "insiderTips": "Alternative to Bay Area zoos"
  },
  {
    "id": 67,
    "name": "Fairyland Sacramento",
    "location": "Sacramento",
    "address": "1238 Bellevue Ave, Sacramento",
    "region": "Beyond Bay Area",
    "type": "Children's Park",
    "ageRange": "2-8",
    "cost": "$",
    "parentQuote": "Fairyland in Sacramento",
    "insiderTips": "Children's storybook park"
  },
  {
    "id": 68,
    "name": "Upick Farms",
    "location": "Brentwood",
    "address": "Various locations, Brentwood area",
    "region": "Other Bay Area",
    "type": "Farm Activity",
    "ageRange": "All ages",
    "cost": "$ + fruit cost",
    "parentQuote": "Upick farms in Brentwood",
    "insiderTips": "Seasonal fruit picking"
  },
  {
    "id": 69,
    "name": "Western Train Museum",
    "location": "Highway 12",
    "address": "5848 State Hwy 12, Suisun City",
    "region": "Other Bay Area",
    "type": "Train Museum",
    "ageRange": "2+",
    "cost": "$",
    "parentQuote": "Western Train Museum on Hwy 12 (can you tell we're into trains around here ðŸ˜†)",
    "insiderTips": "Train-loving family recommendation"
  },
  {
    "id": 70,
    "name": "Rock City",
    "location": "Mount Diablo",
    "address": "Mount Diablo State Park",
    "region": "Other Bay Area",
    "type": "Nature/Climbing",
    "ageRange": "4+",
    "cost": "$ parking",
    "parentQuote": "Rock City on Mt Diablo, also great campsites up there",
    "insiderTips": "Natural rock formations for climbing"
  },
  {
    "id": 71,
    "name": "Elkhorn Slough",
    "location": "Moss Landing",
    "address": "1700 Elkhorn Rd, Watsonville",
    "region": "Other Bay Area",
    "type": "Wildlife Viewing",
    "ageRange": "All ages",
    "cost": "$",
    "parentQuote": "Watching otters and sea lions at the inlet to Elkhorn Slough",
    "insiderTips": "Wildlife viewing experience"
  },
  {
    "id": 72,
    "name": "Children's Discovery Museum Sausalito",
    "location": "Sausalito",
    "address": "557 McReynolds Rd, Sausalito",
    "region": "North Bay",
    "type": "Children's Museum",
    "ageRange": "2-8",
    "cost": "$",
    "parentQuote": "rightly gets a lot of love",
    "insiderTips": "Gets more attention than San Jose location"
  },
  {
    "id": 73,
    "name": "Thousand Oaks Tot Park",
    "location": "Berkeley",
    "address": "1700-1780 Tacoma Ave, Berkeley, CA 94707",
    "region": "East Bay",
    "type": "Playground",
    "ageRange": "1-2",
    "cost": "Free",
    "parentQuote": "Swings are always open, not typically very crowded",
    "insiderTips": "Perfect for toddlers, not crowded"
  },
  {
    "id": 74,
    "name": "Water Taxi - Jack London Square to Alameda",
    "location": "Oakland to Alameda",
    "address": "Jack London Square, Oakland",
    "region": "Transportation",
    "type": "Transportation Adventure",
    "ageRange": "2-3",
    "cost": "Free",
    "parentQuote": "It's a free 2-minute boat ride from Jack London square to Alameda and drops you off right at a great playground",
    "insiderTips": "Memorable and easy outing with small kids"
  },
  {
    "id": 75,
    "name": "Montclair Park",
    "location": "Oakland",
    "address": "6226 Moraga Ave, Oakland, CA 94611",
    "region": "East Bay",
    "type": "Playground",
    "ageRange": "6mo-4yrs",
    "cost": "Free",
    "parentQuote": "It's got two playgrounds - gated one for toddlers, bigger one for older kids. pond with water fountain and lots of geese",
    "insiderTips": "Good for various age groups 6mo to 4yrs"
  },
  {
    "id": 76,
    "name": "Blake Garden",
    "location": "El Cerrito",
    "address": "Blake Garden, El Cerrito",
    "region": "East Bay",
    "type": "Botanical Garden",
    "ageRange": "All ages",
    "cost": "Free",
    "parentQuote": "Blake Garden mentioned in list",
    "insiderTips": "Botanical garden space"
  },
  {
    "id": 77,
    "name": "El Cerrito Splash Pad",
    "location": "El Cerrito",
    "address": "El Cerrito",
    "region": "East Bay",
    "type": "Water Play",
    "ageRange": "1-5",
    "cost": "Free",
    "parentQuote": "El Cerrito Splash Pad mentioned in list",
    "insiderTips": "Free water play for kids"
  },
  {
    "id": 78,
    "name": "Lafayette Reservoir Pedal Boats",
    "location": "Lafayette",
    "address": "3849 Mt Diablo Blvd, Lafayette",
    "region": "East Bay",
    "type": "Water Activity",
    "ageRange": "2+",
    "cost": "$",
    "parentQuote": "Pedal boating at Lafayette reservoir mentioned",
    "insiderTips": "Fun water activity for families"
  },
  {
    "id": 79,
    "name": "Paradise Park Cafe",
    "location": "Lafayette",
    "address": "Paradise Park Cafe, Lafayette",
    "region": "East Bay",
    "type": "Restaurant + Play",
    "ageRange": "All ages",
    "cost": "$",
    "parentQuote": "Brunch at Paradise Park Cafe mentioned",
    "insiderTips": "Restaurant with play area"
  },
  {
    "id": 80,
    "name": "Dimond Park",
    "location": "Oakland",
    "address": "3860 Hanly Rd, Oakland, CA 94602",
    "region": "East Bay",
    "type": "Park",
    "ageRange": "All ages",
    "cost": "Free",
    "parentQuote": "Dimond Park mentioned in comprehensive list",
    "insiderTips": "Local Oakland park"
  },
  {
    "id": 81,
    "name": "Roberts Regional Park",
    "location": "Oakland",
    "address": "9500 Redwood Rd, Oakland, CA 94619",
    "region": "East Bay",
    "type": "Regional Park",
    "ageRange": "All ages",
    "cost": "$ parking",
    "parentQuote": "Roberts Regional Park mentioned",
    "insiderTips": "East Bay Regional Park location"
  },
  {
    "id": 82,
    "name": "San Pablo Park",
    "location": "Berkeley",
    "address": "2800 Park St, Berkeley, CA",
    "region": "East Bay",
    "type": "Park",
    "ageRange": "All ages",
    "cost": "Free",
    "parentQuote": "San Pablo park mentioned",
    "insiderTips": "Local Berkeley park"
  },
  {
    "id": 83,
    "name": "Lake Temescal",
    "location": "Oakland",
    "address": "6500 Broadway Ter, Oakland, CA",
    "region": "East Bay",
    "type": "Lake/Beach",
    "ageRange": "All ages",
    "cost": "$ parking",
    "parentQuote": "Lake Temescal mentioned",
    "insiderTips": "Small lake with beach area"
  },
  {
    "id": 84,
    "name": "Linda Park",
    "location": "Oakland",
    "address": "Linda Park, Oakland",
    "region": "East Bay",
    "type": "Park",
    "ageRange": "All ages",
    "cost": "Free",
    "parentQuote": "Linda Park mentioned",
    "insiderTips": "Local Oakland park"
  },
  {
    "id": 85,
    "name": "Beach Elementary Playground",
    "location": "Piedmont",
    "address": "Beach Elementary, Piedmont",
    "region": "East Bay",
    "type": "School Playground",
    "ageRange": "All ages",
    "cost": "Free",
    "parentQuote": "Beach elementary playground mentioned",
    "insiderTips": "School playground open to public"
  },
  {
    "id": 86,
    "name": "Crocker Elementary Playground",
    "location": "Piedmont",
    "address": "Crocker Elementary, Piedmont",
    "region": "East Bay",
    "type": "School Playground",
    "ageRange": "All ages",
    "cost": "Free",
    "parentQuote": "Crocker Elementary playground mentioned",
    "insiderTips": "School playground open to public"
  },
  {
    "id": 87,
    "name": "Piedmont Park",
    "location": "Piedmont",
    "address": "711 Highland Ave, Piedmont, CA",
    "region": "East Bay",
    "type": "Park",
    "ageRange": "All ages",
    "cost": "Free",
    "parentQuote": "Piedmont Park mentioned",
    "insiderTips": "Local Piedmont park"
  }
  ]
}
